Time,header.seq,header.stamp.secs,header.stamp.nsecs,header.frame_id,status.status,status.service,latitude,longitude,altitude,position_covariance_0,position_covariance_1,position_covariance_2,position_covariance_3,position_covariance_4,position_covariance_5,position_covariance_6,position_covariance_7,position_covariance_8,position_covariance_type
1593996285.366247,25988,1574795807,251754999,navsat_link,2,1,40.663537015,-74.56454322,44.26,0.007744000000000002,0.0,0.0,0.0,0.011320960000000001,0.0,0.0,0.0,163.84000000000003,1
1593996285.5774584,25989,1574795807,462842941,navsat_link,2,1,40.663536115,-74.56454282666667,44.214999999999996,0.00788544,0.0,0.0,0.0,0.011837440000000001,0.0,0.0,0.0,163.84000000000003,1
1593996285.7549863,25990,1574795807,640527009,navsat_link,2,1,40.663534845,-74.56454313333333,44.10099999999999,0.00788544,0.0,0.0,0.0,0.011491840000000003,0.0,0.0,0.0,163.84000000000003,1
1593996285.9797912,25991,1574795807,864800930,navsat_link,2,1,40.663533173333335,-74.56454287333334,44.105,0.007744000000000002,0.0,0.0,0.0,0.011320960000000001,0.0,0.0,0.0,163.84000000000003,1
1593996286.1597335,25992,1574795808,45022010,navsat_link,2,1,40.663531903333336,-74.56454259833333,44.064,0.007744000000000002,0.0,0.0,0.0,0.011151360000000003,0.0,0.0,0.0,163.84000000000003,1
1593996286.3572705,25993,1574795808,242470026,navsat_link,2,1,40.66353014333333,-74.56454224833334,44.037,0.007744000000000002,0.0,0.0,0.0,0.011151360000000003,0.0,0.0,0.0,163.84000000000003,1
1593996286.5590856,25994,1574795808,444366931,navsat_link,2,1,40.66352799166667,-74.564541755,44.109,0.007744000000000002,0.0,0.0,0.0,0.011151360000000003,0.0,0.0,0.0,163.84000000000003,1
1593996286.7577043,25995,1574795808,642312049,navsat_link,2,1,40.663525285,-74.564542005,44.10999999999999,0.009623610000000001,0.0,0.0,0.0,0.013900410000000002,0.0,0.0,0.0,207.36,1
1593996286.9582827,25996,1574795808,843493938,navsat_link,2,1,40.66352319666667,-74.564541925,44.086999999999996,0.009623610000000001,0.0,0.0,0.0,0.013900410000000002,0.0,0.0,0.0,207.36,1
1593996287.1608677,25997,1574795809,45190095,navsat_link,2,1,40.66352093333333,-74.56454225333333,44.052,0.009623610000000001,0.0,0.0,0.0,0.013900410000000002,0.0,0.0,0.0,207.36,1
1593996287.3530846,25998,1574795809,238404035,navsat_link,2,1,40.663519765,-74.56454228833333,44.050999999999995,0.009623610000000001,0.0,0.0,0.0,0.013900410000000002,0.0,0.0,0.0,207.36,1
1593996287.5605087,25999,1574795809,444935083,navsat_link,2,1,40.66351898833334,-74.564542345,44.091,0.00760384,0.0,0.0,0.0,0.010816000000000003,0.0,0.0,0.0,163.84000000000003,1
1593996287.7536647,26000,1574795809,639013051,navsat_link,2,1,40.663518525,-74.56454194666667,44.105,0.00760384,0.0,0.0,0.0,0.010816000000000003,0.0,0.0,0.0,163.84000000000003,1
1593996287.9929605,26001,1574795809,878427028,navsat_link,2,1,40.66351727833333,-74.56454132333333,44.138,0.00760384,0.0,0.0,0.0,0.010816000000000003,0.0,0.0,0.0,163.84000000000003,1
1593996288.1710222,26002,1574795810,56518077,navsat_link,2,1,40.66351611166667,-74.56454030833333,44.141,0.0074649600000000005,0.0,0.0,0.0,0.010816000000000003,0.0,0.0,0.0,163.84000000000003,1
1593996288.3712547,26003,1574795810,256452083,navsat_link,2,1,40.66351488666667,-74.56453917666667,44.11299999999999,0.0074649600000000005,0.0,0.0,0.0,0.010650240000000004,0.0,0.0,0.0,163.84000000000003,1
1593996288.5654786,26004,1574795810,450813055,navsat_link,2,1,40.663513475,-74.56453757833333,44.115,0.0074649600000000005,0.0,0.0,0.0,0.010650240000000004,0.0,0.0,0.0,163.84000000000003,1
1593996288.7690585,26005,1574795810,653517007,navsat_link,2,1,40.66351242,-74.564536535,44.056000000000004,0.0074649600000000005,0.0,0.0,0.0,0.010816000000000003,0.0,0.0,0.0,163.84000000000003,1
1593996288.9810393,26006,1574795810,866206884,navsat_link,2,1,40.66351109166666,-74.56453521166667,44.068999999999996,0.0074649600000000005,0.0,0.0,0.0,0.010816000000000003,0.0,0.0,0.0,163.84000000000003,1
1593996289.1748896,26007,1574795811,59721946,navsat_link,2,1,40.663510366666664,-74.564534865,44.062999999999995,0.0074649600000000005,0.0,0.0,0.0,0.010650240000000004,0.0,0.0,0.0,163.84000000000003,1
1593996289.3704112,26008,1574795811,255599975,navsat_link,2,1,40.663509043333335,-74.56453281333333,44.083000000000006,0.0074649600000000005,0.0,0.0,0.0,0.010650240000000004,0.0,0.0,0.0,163.84000000000003,1
1593996289.5651085,26009,1574795811,450226068,navsat_link,2,1,40.66350751,-74.56453092,44.109,0.0074649600000000005,0.0,0.0,0.0,0.010650240000000004,0.0,0.0,0.0,163.84000000000003,1
1593996289.7629344,26010,1574795811,648464918,navsat_link,2,1,40.663505926666666,-74.56452804333334,44.142999999999994,0.00927369,0.0,0.0,0.0,0.013479210000000002,0.0,0.0,0.0,207.36,1
1593996289.9773088,26011,1574795811,862606048,navsat_link,2,1,40.66350478166667,-74.56452627,44.127,0.00927369,0.0,0.0,0.0,0.013479210000000002,0.0,0.0,0.0,207.36,1
1593996290.1818957,26012,1574795812,66989898,navsat_link,2,1,40.66350400166667,-74.564524845,44.092999999999996,0.00927369,0.0,0.0,0.0,0.013271040000000003,0.0,0.0,0.0,207.36,1
1593996290.3779583,26013,1574795812,263004064,navsat_link,2,1,40.663503778333336,-74.56452414166667,44.13099999999999,0.00927369,0.0,0.0,0.0,0.013479210000000002,0.0,0.0,0.0,207.36,1
1593996290.5740821,26014,1574795812,459182024,navsat_link,2,1,40.66350260833333,-74.56452281666667,44.12,0.00927369,0.0,0.0,0.0,0.013689000000000002,0.0,0.0,0.0,207.36,1
1593996290.768929,26015,1574795812,654077053,navsat_link,2,1,40.66350089833333,-74.56452165833333,44.053000000000004,0.00927369,0.0,0.0,0.0,0.013479210000000002,0.0,0.0,0.0,207.36,1
1593996290.9656858,26016,1574795812,850470066,navsat_link,2,1,40.6634991,-74.564520545,44.013,0.00927369,0.0,0.0,0.0,0.013479210000000002,0.0,0.0,0.0,207.36,1
1593996291.1698766,26017,1574795813,54800987,navsat_link,2,1,40.66349803666667,-74.56451933666666,44.013,0.00927369,0.0,0.0,0.0,0.013479210000000002,0.0,0.0,0.0,207.36,1
1593996291.3585207,26018,1574795813,243679046,navsat_link,2,1,40.66349692666667,-74.56451801666667,44.041999999999994,0.00927369,0.0,0.0,0.0,0.013271040000000003,0.0,0.0,0.0,207.36,1
1593996291.5610147,26019,1574795813,445878982,navsat_link,2,1,40.66349550666666,-74.56451599833333,43.964999999999996,0.00927369,0.0,0.0,0.0,0.013271040000000003,0.0,0.0,0.0,207.36,1
1593996291.7724545,26020,1574795813,657259941,navsat_link,2,1,40.66349373,-74.564514575,44.029,0.00910116,0.0,0.0,0.0,0.01306449,0.0,0.0,0.0,207.36,1
1593996291.960375,26021,1574795813,845870971,navsat_link,2,1,40.663492358333336,-74.56451277,43.961999999999996,0.00910116,0.0,0.0,0.0,0.01306449,0.0,0.0,0.0,207.36,1
1593996292.1623034,26022,1574795814,47277927,navsat_link,2,1,40.663490378333336,-74.564511445,43.922999999999995,0.00910116,0.0,0.0,0.0,0.01306449,0.0,0.0,0.0,207.36,1
1593996292.3728175,26023,1574795814,257028102,navsat_link,2,1,40.663489035,-74.56451065,43.909,0.00910116,0.0,0.0,0.0,0.01285956,0.0,0.0,0.0,207.36,1
1593996292.5596168,26024,1574795814,444953918,navsat_link,2,1,40.663487663333335,-74.56450912333334,43.823,0.00910116,0.0,0.0,0.0,0.01285956,0.0,0.0,0.0,207.36,1
1593996292.7621644,26025,1574795814,647535085,navsat_link,2,1,40.663486166666665,-74.56450750833334,43.826,0.00910116,0.0,0.0,0.0,0.01285956,0.0,0.0,0.0,207.36,1
1593996292.967879,26026,1574795814,853137969,navsat_link,2,1,40.663484606666664,-74.56450495166666,43.847,0.00893025,0.0,0.0,0.0,0.01285956,0.0,0.0,0.0,207.36,1
1593996293.1688657,26027,1574795815,53657054,navsat_link,2,1,40.663482955,-74.56450244666667,43.861,0.00893025,0.0,0.0,0.0,0.01285956,0.0,0.0,0.0,207.36,1
1593996293.3540847,26028,1574795815,239660024,navsat_link,2,1,40.66348132,-74.56449972166666,43.862,0.00893025,0.0,0.0,0.0,0.01285956,0.0,0.0,0.0,207.36,1
1593996293.5607796,26029,1574795815,446167945,navsat_link,2,1,40.66347993666667,-74.56449800166666,43.861,0.00893025,0.0,0.0,0.0,0.01285956,0.0,0.0,0.0,207.36,1
1593996293.7642167,26030,1574795815,649723052,navsat_link,2,1,40.66347847666667,-74.56449589833333,43.826,0.00893025,0.0,0.0,0.0,0.01265625,0.0,0.0,0.0,207.36,1
1593996293.9683237,26031,1574795815,853703022,navsat_link,2,1,40.663476575,-74.56449367333333,43.767,0.00893025,0.0,0.0,0.0,0.01265625,0.0,0.0,0.0,207.36,1
1593996294.17271,26032,1574795816,56901931,navsat_link,2,1,40.66347474166667,-74.56449202166667,43.705999999999996,0.00893025,0.0,0.0,0.0,0.01265625,0.0,0.0,0.0,207.36,1
1593996294.3644211,26033,1574795816,249718904,navsat_link,2,1,40.66347368,-74.564490245,43.678999999999995,0.00893025,0.0,0.0,0.0,0.012454560000000002,0.0,0.0,0.0,207.36,1
1593996294.571164,26034,1574795816,456182003,navsat_link,2,1,40.66347209166667,-74.564487635,43.675000000000004,0.00876096,0.0,0.0,0.0,0.012454560000000002,0.0,0.0,0.0,207.36,1
1593996294.765625,26035,1574795816,650929927,navsat_link,2,1,40.66347026166667,-74.56448483166666,43.721,0.00876096,0.0,0.0,0.0,0.012454560000000002,0.0,0.0,0.0,207.36,1
1593996294.9572687,26036,1574795816,842778921,navsat_link,2,1,40.66346851833333,-74.56448270166666,43.74399999999999,0.00876096,0.0,0.0,0.0,0.012454560000000002,0.0,0.0,0.0,207.36,1
1593996295.1678045,26037,1574795817,53111076,navsat_link,2,1,40.663467051666665,-74.56448015666666,43.739,0.00876096,0.0,0.0,0.0,0.012254490000000002,0.0,0.0,0.0,207.36,1
1593996295.3621652,26038,1574795817,247257947,navsat_link,2,1,40.66346588,-74.56447746666667,43.644,0.00876096,0.0,0.0,0.0,0.012254490000000002,0.0,0.0,0.0,207.36,1
1593996295.5625918,26039,1574795817,448319911,navsat_link,2,1,40.663464506666664,-74.564474655,43.668,0.00876096,0.0,0.0,0.0,0.012254490000000002,0.0,0.0,0.0,207.36,1
1593996295.768502,26040,1574795817,653858900,navsat_link,2,1,40.66346343,-74.56447284666666,43.599,0.00876096,0.0,0.0,0.0,0.012254490000000002,0.0,0.0,0.0,207.36,1
1593996295.956452,26041,1574795817,841778039,navsat_link,2,1,40.663461463333334,-74.56446977,43.672999999999995,0.008593289999999998,0.0,0.0,0.0,0.012254490000000002,0.0,0.0,0.0,207.36,1
1593996296.1772912,26042,1574795818,62699079,navsat_link,2,1,40.66345988166667,-74.56446768833334,43.573,0.00876096,0.0,0.0,0.0,0.012454560000000002,0.0,0.0,0.0,207.36,1
1593996296.3611557,26043,1574795818,246431112,navsat_link,2,1,40.66345802166666,-74.56446514166667,43.529,0.008593289999999998,0.0,0.0,0.0,0.012254490000000002,0.0,0.0,0.0,207.36,1
1593996296.5592995,26044,1574795818,444730043,navsat_link,2,1,40.66345611166667,-74.56446321833333,43.526,0.008593289999999998,0.0,0.0,0.0,0.012056039999999999,0.0,0.0,0.0,207.36,1
1593996296.762227,26045,1574795818,647372007,navsat_link,2,1,40.663454298333335,-74.56446087,43.49399999999999,0.008593289999999998,0.0,0.0,0.0,0.012056039999999999,0.0,0.0,0.0,207.36,1
1593996296.9656296,26046,1574795818,850929975,navsat_link,2,1,40.663452248333336,-74.56445834666667,43.461999999999996,0.008593289999999998,0.0,0.0,0.0,0.012056039999999999,0.0,0.0,0.0,207.36,1
1593996297.1740582,26047,1574795819,59479951,navsat_link,2,1,40.663450448333336,-74.56445651166666,43.439,0.008593289999999998,0.0,0.0,0.0,0.012056039999999999,0.0,0.0,0.0,207.36,1
1593996297.3688512,26048,1574795819,254103899,navsat_link,2,1,40.66344874833333,-74.56445454833333,43.38999999999999,0.008593289999999998,0.0,0.0,0.0,0.011859209999999999,0.0,0.0,0.0,207.36,1
1593996297.5615435,26049,1574795819,447079896,navsat_link,2,1,40.66344800833333,-74.564453435,43.309000000000005,0.008593289999999998,0.0,0.0,0.0,0.011859209999999999,0.0,0.0,0.0,207.36,1
1593996297.767236,26050,1574795819,652604103,navsat_link,2,1,40.66344735,-74.56445258166667,43.346,0.008427239999999999,0.0,0.0,0.0,0.011859209999999999,0.0,0.0,0.0,207.36,1
1593996297.9608233,26051,1574795819,846333980,navsat_link,2,1,40.663446578333335,-74.56445095666666,43.327999999999996,0.008427239999999999,0.0,0.0,0.0,0.011859209999999999,0.0,0.0,0.0,207.36,1
1593996298.1802258,26052,1574795820,65639019,navsat_link,2,1,40.663445556666666,-74.56444861666667,43.287,0.008427239999999999,0.0,0.0,0.0,0.011663999999999999,0.0,0.0,0.0,207.36,1
1593996298.3650339,26053,1574795820,250633001,navsat_link,2,1,40.663444453333334,-74.56444549333334,43.266,0.008427239999999999,0.0,0.0,0.0,0.011663999999999999,0.0,0.0,0.0,207.36,1
1593996298.5640616,26054,1574795820,449335098,navsat_link,2,1,40.66344324666667,-74.564442555,43.26199999999999,0.008427239999999999,0.0,0.0,0.0,0.011663999999999999,0.0,0.0,0.0,207.36,1
1593996298.7666578,26055,1574795820,652013063,navsat_link,2,1,40.663441911666666,-74.56443965333334,43.24699999999999,0.008427239999999999,0.0,0.0,0.0,0.01147041,0.0,0.0,0.0,207.36,1
1593996298.9716048,26056,1574795820,857199907,navsat_link,2,1,40.66344007833333,-74.56443694666666,43.258,0.008427239999999999,0.0,0.0,0.0,0.01147041,0.0,0.0,0.0,207.36,1
1593996299.1701636,26057,1574795821,55223941,navsat_link,2,1,40.66343871666667,-74.564434495,43.187000000000005,0.008262810000000002,0.0,0.0,0.0,0.01147041,0.0,0.0,0.0,207.36,1
1593996299.3703604,26058,1574795821,255702972,navsat_link,2,1,40.66343735833333,-74.56443208499999,43.124,0.008262810000000002,0.0,0.0,0.0,0.01147041,0.0,0.0,0.0,207.36,1
1593996299.573831,26059,1574795821,458775997,navsat_link,2,1,40.66343573666666,-74.56442949333334,43.124,0.008262810000000002,0.0,0.0,0.0,0.01127844,0.0,0.0,0.0,207.36,1
1593996299.7791238,26060,1574795821,660672903,navsat_link,2,1,40.663433965,-74.564427075,43.089999999999996,0.008262810000000002,0.0,0.0,0.0,0.01127844,0.0,0.0,0.0,207.36,1
1593996299.9693472,26061,1574795821,852526903,navsat_link,2,1,40.66343222,-74.56442539666666,43.050000000000004,0.008262810000000002,0.0,0.0,0.0,0.01127844,0.0,0.0,0.0,207.36,1
1593996300.1903462,26062,1574795822,75329065,navsat_link,2,1,40.66342981,-74.56442350333333,43.068000000000005,0.008262810000000002,0.0,0.0,0.0,0.01127844,0.0,0.0,0.0,207.36,1
1593996300.376379,26063,1574795822,260796070,navsat_link,2,1,40.66342736166666,-74.56442183166666,43.049,0.008100000000000001,0.0,0.0,0.0,0.011088090000000002,0.0,0.0,0.0,207.36,1
1593996300.5731149,26064,1574795822,457602024,navsat_link,2,1,40.663425266666664,-74.56442018333334,42.995,0.008100000000000001,0.0,0.0,0.0,0.011088090000000002,0.0,0.0,0.0,207.36,1
1593996300.7709036,26065,1574795822,655957937,navsat_link,2,1,40.66342369833333,-74.564419075,42.954,0.008100000000000001,0.0,0.0,0.0,0.011088090000000002,0.0,0.0,0.0,207.36,1
1593996300.9724126,26066,1574795822,857583999,navsat_link,2,1,40.663422395,-74.564418305,42.993,0.008100000000000001,0.0,0.0,0.0,0.011088090000000002,0.0,0.0,0.0,207.36,1
1593996301.1658525,26067,1574795823,50594091,navsat_link,2,1,40.66342141333333,-74.56441714333333,42.963,0.008100000000000001,0.0,0.0,0.0,0.011088090000000002,0.0,0.0,0.0,207.36,1
1593996301.3743732,26068,1574795823,259043931,navsat_link,2,1,40.66342005,-74.56441494166667,42.98199999999999,0.008100000000000001,0.0,0.0,0.0,0.010899360000000002,0.0,0.0,0.0,207.36,1
1593996301.570324,26069,1574795823,455235958,navsat_link,2,1,40.663418363333335,-74.564412405,42.934000000000005,0.008100000000000001,0.0,0.0,0.0,0.010899360000000002,0.0,0.0,0.0,207.36,1
1593996301.775819,26070,1574795823,660981893,navsat_link,2,1,40.66341689,-74.56441106666666,42.913000000000004,0.007938810000000003,0.0,0.0,0.0,0.010899360000000002,0.0,0.0,0.0,207.36,1
1593996301.9748619,26071,1574795823,855593919,navsat_link,2,1,40.66341567333333,-74.564408345,42.87499999999999,0.007938810000000003,0.0,0.0,0.0,0.010899360000000002,0.0,0.0,0.0,207.36,1
1593996302.1768312,26072,1574795824,61846971,navsat_link,2,1,40.66341448166666,-74.56440556,42.861,0.007938810000000003,0.0,0.0,0.0,0.010899360000000002,0.0,0.0,0.0,207.36,1
1593996302.3783066,26073,1574795824,263411998,navsat_link,2,1,40.66341321833333,-74.56440258333333,42.85,0.007938810000000003,0.0,0.0,0.0,0.010899360000000002,0.0,0.0,0.0,207.36,1
1593996302.5778863,26074,1574795824,462969064,navsat_link,2,1,40.66341183,-74.56440005666667,42.867,0.007938810000000003,0.0,0.0,0.0,0.010712250000000001,0.0,0.0,0.0,207.36,1
1593996302.7704906,26075,1574795824,655029058,navsat_link,2,1,40.66341093166667,-74.564396895,42.821999999999996,0.007938810000000003,0.0,0.0,0.0,0.010712250000000001,0.0,0.0,0.0,207.36,1
1593996302.975614,26076,1574795824,860753059,navsat_link,2,1,40.66340984,-74.56439405166667,42.788999999999994,0.007938810000000003,0.0,0.0,0.0,0.010712250000000001,0.0,0.0,0.0,207.36,1
1593996303.172299,26077,1574795825,57085990,navsat_link,2,1,40.66340873833333,-74.56439102166667,42.75599999999999,0.007938810000000003,0.0,0.0,0.0,0.010712250000000001,0.0,0.0,0.0,207.36,1
1593996303.3793514,26078,1574795825,264092922,navsat_link,2,1,40.663407453333335,-74.564388465,42.77,0.007938810000000003,0.0,0.0,0.0,0.010526760000000001,0.0,0.0,0.0,207.36,1
1593996303.5766253,26079,1574795825,461558103,navsat_link,2,1,40.663406118333334,-74.56438546333334,42.728,0.00777924,0.0,0.0,0.0,0.010526760000000001,0.0,0.0,0.0,207.36,1
1593996303.7712243,26080,1574795825,656100034,navsat_link,2,1,40.663404955,-74.56438272333334,42.724,0.00777924,0.0,0.0,0.0,0.010526760000000001,0.0,0.0,0.0,207.36,1
1593996303.9726787,26081,1574795825,857585906,navsat_link,2,1,40.66340379,-74.56437987,42.683,0.00777924,0.0,0.0,0.0,0.010526760000000001,0.0,0.0,0.0,207.36,1
1593996304.1685078,26082,1574795826,53286075,navsat_link,2,1,40.663402866666665,-74.56437845833334,42.674,0.00777924,0.0,0.0,0.0,0.010526760000000001,0.0,0.0,0.0,207.36,1
1593996304.3845553,26083,1574795826,269646883,navsat_link,2,1,40.663400933333335,-74.56437603833334,42.696999999999996,0.00777924,0.0,0.0,0.0,0.010526760000000001,0.0,0.0,0.0,207.36,1
1593996304.575074,26084,1574795826,459934949,navsat_link,2,1,40.66339930833333,-74.56437360333334,42.617,0.00777924,0.0,0.0,0.0,0.010526760000000001,0.0,0.0,0.0,207.36,1
1593996304.76874,26085,1574795826,653394937,navsat_link,2,1,40.66339712333333,-74.56437159333333,42.626,0.00777924,0.0,0.0,0.0,0.01034289,0.0,0.0,0.0,207.36,1
1593996304.9743423,26086,1574795826,859253883,navsat_link,2,1,40.663395215,-74.56436965666667,42.626,0.00777924,0.0,0.0,0.0,0.01034289,0.0,0.0,0.0,207.36,1
1593996305.16963,26087,1574795827,54229974,navsat_link,2,1,40.663393338333336,-74.56436764333333,42.562000000000005,0.00777924,0.0,0.0,0.0,0.01034289,0.0,0.0,0.0,207.36,1
1593996305.3859892,26088,1574795827,270622014,navsat_link,2,1,40.663391095,-74.564365985,42.562999999999995,0.00777924,0.0,0.0,0.0,0.01034289,0.0,0.0,0.0,207.36,1
1593996305.5684412,26089,1574795827,453267097,navsat_link,2,1,40.663388991666665,-74.564364085,42.550000000000004,0.00762129,0.0,0.0,0.0,0.01034289,0.0,0.0,0.0,207.36,1
1593996305.7674725,26090,1574795827,652815103,navsat_link,2,1,40.66338733333333,-74.56436254833334,42.486,0.00762129,0.0,0.0,0.0,0.01034289,0.0,0.0,0.0,207.36,1
1593996305.9698339,26091,1574795827,855436086,navsat_link,2,1,40.663385778333335,-74.56436077,42.464000000000006,0.00762129,0.0,0.0,0.0,0.01034289,0.0,0.0,0.0,207.36,1
1593996306.1730533,26092,1574795828,58424949,navsat_link,2,1,40.66338427833333,-74.56435884666666,42.492,0.00762129,0.0,0.0,0.0,0.01016064,0.0,0.0,0.0,207.36,1
1593996306.3982139,26093,1574795828,283390045,navsat_link,2,1,40.66338298666667,-74.56435696333334,42.474,0.00762129,0.0,0.0,0.0,0.01016064,0.0,0.0,0.0,207.36,1
1593996306.5717275,26094,1574795828,457087039,navsat_link,2,1,40.663382015,-74.56435492833333,42.452000000000005,0.00762129,0.0,0.0,0.0,0.01016064,0.0,0.0,0.0,207.36,1
1593996306.779605,26095,1574795828,664944887,navsat_link,2,1,40.663380401666664,-74.56435173333334,42.49,0.00762129,0.0,0.0,0.0,0.01016064,0.0,0.0,0.0,207.36,1
1593996306.9734461,26096,1574795828,858994007,navsat_link,2,1,40.663379281666664,-74.56434899999999,42.409,0.00762129,0.0,0.0,0.0,0.01034289,0.0,0.0,0.0,207.36,1
1593996307.170274,26097,1574795829,55766105,navsat_link,2,1,40.66337779166667,-74.56434633666667,42.362,0.00762129,0.0,0.0,0.0,0.009980010000000001,0.0,0.0,0.0,207.36,1
1593996307.3797023,26098,1574795829,265367031,navsat_link,2,1,40.6633766,-74.56434362666667,42.358,0.0074649600000000005,0.0,0.0,0.0,0.009980010000000001,0.0,0.0,0.0,207.36,1
1593996307.571542,26099,1574795829,456912040,navsat_link,2,1,40.66337534666667,-74.564341175,42.383,0.0074649600000000005,0.0,0.0,0.0,0.009980010000000001,0.0,0.0,0.0,207.36,1
1593996307.7683575,26100,1574795829,653678894,navsat_link,2,1,40.66337386166666,-74.56433865166667,42.35999999999999,0.0074649600000000005,0.0,0.0,0.0,0.009980010000000001,0.0,0.0,0.0,207.36,1
1593996307.9739044,26101,1574795829,859489917,navsat_link,2,1,40.663372493333334,-74.564335765,42.303999999999995,0.0074649600000000005,0.0,0.0,0.0,0.009980010000000001,0.0,0.0,0.0,207.36,1
1593996308.1815822,26102,1574795830,66766977,navsat_link,2,1,40.663371035,-74.56433333833333,42.311,0.0074649600000000005,0.0,0.0,0.0,0.009980010000000001,0.0,0.0,0.0,207.36,1
1593996308.3859913,26103,1574795830,271151065,navsat_link,2,1,40.66336957833333,-74.564330725,42.299,0.0074649600000000005,0.0,0.0,0.0,0.009801,0.0,0.0,0.0,207.36,1
1593996308.5744781,26104,1574795830,459659099,navsat_link,2,1,40.663368105,-74.564327665,42.285999999999994,0.0074649600000000005,0.0,0.0,0.0,0.009801,0.0,0.0,0.0,207.36,1
1593996308.7680311,26105,1574795830,653660058,navsat_link,2,1,40.66336646833334,-74.56432492166667,42.291999999999994,0.0074649600000000005,0.0,0.0,0.0,0.009801,0.0,0.0,0.0,207.36,1
1593996308.9789999,26106,1574795830,863888978,navsat_link,2,1,40.66336468666667,-74.56432275333333,42.251,0.0074649600000000005,0.0,0.0,0.0,0.009801,0.0,0.0,0.0,207.36,1
1593996309.1591802,26107,1574795831,44656038,navsat_link,2,1,40.66336308666666,-74.56432044666667,42.23499999999999,0.0074649600000000005,0.0,0.0,0.0,0.009801,0.0,0.0,0.0,207.36,1
1593996309.3660104,26108,1574795831,250984907,navsat_link,2,1,40.66336178666667,-74.56431844,42.214000000000006,0.0074649600000000005,0.0,0.0,0.0,0.009801,0.0,0.0,0.0,207.36,1
1593996309.5697536,26109,1574795831,455429077,navsat_link,2,1,40.663360465,-74.56431696666667,42.214999999999996,0.007310250000000001,0.0,0.0,0.0,0.009801,0.0,0.0,0.0,207.36,1
1593996309.7716987,26110,1574795831,657181978,navsat_link,2,1,40.663358825,-74.56431560833333,42.217000000000006,0.007310250000000001,0.0,0.0,0.0,0.009801,0.0,0.0,0.0,207.36,1
1593996309.9680054,26111,1574795831,853503942,navsat_link,2,1,40.66335742,-74.56431469333333,42.145,0.007310250000000001,0.0,0.0,0.0,0.009623610000000001,0.0,0.0,0.0,207.36,1
1593996310.1720848,26112,1574795832,57565927,navsat_link,2,1,40.66335521333333,-74.564313475,42.145999999999994,0.007310250000000001,0.0,0.0,0.0,0.009623610000000001,0.0,0.0,0.0,207.36,1
1593996310.3669422,26113,1574795832,252449989,navsat_link,2,1,40.66335315333333,-74.56431206166667,42.15,0.007310250000000001,0.0,0.0,0.0,0.009623610000000001,0.0,0.0,0.0,207.36,1
1593996310.5729015,26114,1574795832,458312988,navsat_link,2,1,40.663351043333336,-74.56431048166667,42.234,0.007310250000000001,0.0,0.0,0.0,0.009623610000000001,0.0,0.0,0.0,207.36,1
1593996310.766684,26115,1574795832,652040958,navsat_link,2,1,40.66334954333333,-74.56430936166667,42.159,0.007310250000000001,0.0,0.0,0.0,0.009623610000000001,0.0,0.0,0.0,207.36,1
1593996310.9716523,26116,1574795832,857063055,navsat_link,2,1,40.66334816166667,-74.56430758833334,42.083999999999996,0.007310250000000001,0.0,0.0,0.0,0.009623610000000001,0.0,0.0,0.0,207.36,1
1593996311.1675544,26117,1574795833,52687883,navsat_link,2,1,40.66334645,-74.5643054,42.10999999999999,0.007310250000000001,0.0,0.0,0.0,0.009447839999999999,0.0,0.0,0.0,207.36,1
1593996311.3710568,26118,1574795833,256649017,navsat_link,2,1,40.66334480333333,-74.56430314,42.097,0.007310250000000001,0.0,0.0,0.0,0.009447839999999999,0.0,0.0,0.0,207.36,1
1593996311.5763104,26119,1574795833,460850000,navsat_link,2,1,40.66334299333333,-74.56430099333333,42.056000000000004,0.007310250000000001,0.0,0.0,0.0,0.009447839999999999,0.0,0.0,0.0,207.36,1
1593996311.7673833,26120,1574795833,652420997,navsat_link,2,1,40.66334133833333,-74.564298755,42.074000000000005,0.007157160000000002,0.0,0.0,0.0,0.009447839999999999,0.0,0.0,0.0,207.36,1
1593996311.9746528,26121,1574795833,860017061,navsat_link,2,1,40.663339623333336,-74.56429677333334,42.085,0.007157160000000002,0.0,0.0,0.0,0.009447839999999999,0.0,0.0,0.0,207.36,1
1593996312.173116,26122,1574795834,57780981,navsat_link,2,1,40.66333788666667,-74.56429426,42.076,0.007157160000000002,0.0,0.0,0.0,0.009447839999999999,0.0,0.0,0.0,207.36,1
1593996312.3678858,26123,1574795834,252842903,navsat_link,2,1,40.663336378333334,-74.56429226333333,42.031,0.007157160000000002,0.0,0.0,0.0,0.00927369,0.0,0.0,0.0,207.36,1
1593996312.5715318,26124,1574795834,456548929,navsat_link,2,1,40.663334903333336,-74.564290655,42.089000000000006,0.007157160000000002,0.0,0.0,0.0,0.00927369,0.0,0.0,0.0,207.36,1
1593996312.766846,26125,1574795834,651458024,navsat_link,2,1,40.663333045,-74.56428827666667,42.214999999999996,0.007157160000000002,0.0,0.0,0.0,0.00927369,0.0,0.0,0.0,207.36,1
1593996312.9700396,26126,1574795834,854695081,navsat_link,2,1,40.66333213666667,-74.56428573333334,42.049,0.007157160000000002,0.0,0.0,0.0,0.009801,0.0,0.0,0.0,207.36,1
1593996313.1626594,26127,1574795835,47178030,navsat_link,2,1,40.663331095,-74.56428277166667,42.050999999999995,0.007157160000000002,0.0,0.0,0.0,0.00927369,0.0,0.0,0.0,207.36,1
1593996313.3651464,26128,1574795835,249984979,navsat_link,2,1,40.66332955166666,-74.56428004166666,42.144,0.007157160000000002,0.0,0.0,0.0,0.009980010000000001,0.0,0.0,0.0,207.36,1
1593996313.5727777,26129,1574795835,457685947,navsat_link,2,1,40.663328085,-74.56427745166667,42.112,0.007157160000000002,0.0,0.0,0.0,0.009623610000000001,0.0,0.0,0.0,207.36,1
1593996313.7666075,26130,1574795835,651514053,navsat_link,2,1,40.663326956666666,-74.56427547833333,42.099,0.007157160000000002,0.0,0.0,0.0,0.009623610000000001,0.0,0.0,0.0,207.36,1
1593996313.9697633,26131,1574795835,854670047,navsat_link,2,1,40.66332584166667,-74.56427477833333,42.189,0.007157160000000002,0.0,0.0,0.0,0.009623610000000001,0.0,0.0,0.0,207.36,1
1593996314.1718132,26132,1574795836,56845903,navsat_link,2,1,40.66332426,-74.564273045,42.23499999999999,0.007005689999999999,0.0,0.0,0.0,0.009623610000000001,0.0,0.0,0.0,207.36,1
1593996314.3718848,26133,1574795836,256829977,navsat_link,2,1,40.66332249,-74.56427100166667,42.207,0.007157160000000002,0.0,0.0,0.0,0.009447839999999999,0.0,0.0,0.0,207.36,1
1593996314.587774,26134,1574795836,473215103,navsat_link,2,1,40.663320363333334,-74.56426945666666,42.171,0.007005689999999999,0.0,0.0,0.0,0.00927369,0.0,0.0,0.0,207.36,1
1593996314.7658384,26135,1574795836,650886058,navsat_link,2,1,40.663318198333336,-74.56426751,42.10099999999999,0.007005689999999999,0.0,0.0,0.0,0.00927369,0.0,0.0,0.0,207.36,1
1593996314.9692738,26136,1574795836,854269027,navsat_link,2,1,40.66331645166667,-74.56426558833333,42.047999999999995,0.007005689999999999,0.0,0.0,0.0,0.00927369,0.0,0.0,0.0,207.36,1
1593996315.171856,26137,1574795837,56973934,navsat_link,2,1,40.663314165,-74.56426418166667,42.035000000000004,0.007157160000000002,0.0,0.0,0.0,0.00927369,0.0,0.0,0.0,207.36,1
1593996315.3736746,26138,1574795837,258532047,navsat_link,2,1,40.663312518333335,-74.564262525,41.580999999999996,0.007157160000000002,0.0,0.0,0.0,0.00927369,0.0,0.0,0.0,0.005184000000000001,1
1593996315.577024,26139,1574795837,462704896,navsat_link,2,1,40.663310105,-74.56426092166667,41.644,0.00013689,0.0,0.0,0.0,0.00020736000000000005,0.0,0.0,0.0,0.005184000000000001,1
1593996315.7697585,26140,1574795837,655152082,navsat_link,2,1,40.663308125,-74.56425901666667,41.653,0.00020736000000000005,0.0,0.0,0.0,0.00020736000000000005,0.0,0.0,0.0,0.005184000000000001,1
1593996315.9716818,26141,1574795837,857352972,navsat_link,2,1,40.66330626,-74.56425719166667,41.641,0.00020736000000000005,0.0,0.0,0.0,0.00020736000000000005,0.0,0.0,0.0,0.005184000000000001,1
1593996316.17714,26142,1574795838,62592029,navsat_link,2,1,40.663304425,-74.56425522166667,41.586999999999996,0.00015876,0.0,0.0,0.0,0.00018224999999999998,0.0,0.0,0.0,0.005184000000000001,1
1593996316.3845706,26143,1574795838,268964052,navsat_link,2,1,40.663301483333335,-74.56425437166666,42.038000000000004,0.00013689,0.0,0.0,0.0,0.00018224999999999998,0.0,0.0,0.0,207.36,1
1593996316.5648384,26144,1574795838,450370073,navsat_link,2,1,40.66330131,-74.564252415,41.589000000000006,0.007005689999999999,0.0,0.0,0.0,0.00910116,0.0,0.0,0.0,0.005184000000000001,1
1593996316.766705,26145,1574795838,651778936,navsat_link,2,1,40.66330056166667,-74.56425186833333,41.596,0.00015876,0.0,0.0,0.0,0.00015876,0.0,0.0,0.0,0.005184000000000001,1
1593996316.9583132,26146,1574795838,843791961,navsat_link,2,1,40.66329988,-74.5642501,41.567,0.00011664000000000001,0.0,0.0,0.0,0.00013689,0.0,0.0,0.0,0.005184000000000001,1
1593996317.1636431,26147,1574795839,49230098,navsat_link,2,1,40.663298805,-74.564247655,41.589000000000006,9.800999999999998e-05,0.0,0.0,0.0,0.00013689,0.0,0.0,0.0,0.005184000000000001,1
1593996317.370742,26148,1574795839,256378889,navsat_link,2,1,40.663297066666665,-74.564245395,41.588,9.800999999999998e-05,0.0,0.0,0.0,0.00011664000000000001,0.0,0.0,0.0,0.005184000000000001,1
1593996317.6130006,26149,1574795839,498033046,navsat_link,2,1,40.66329561,-74.56424275166667,41.648,9.800999999999998e-05,0.0,0.0,0.0,0.00011664000000000001,0.0,0.0,0.0,0.005184000000000001,1
1593996317.7705624,26150,1574795839,655791997,navsat_link,2,1,40.66329406333333,-74.56423994,41.638,9.800999999999998e-05,0.0,0.0,0.0,0.00011664000000000001,0.0,0.0,0.0,0.005184000000000001,1
1593996317.966623,26151,1574795839,851898908,navsat_link,2,1,40.66329244333333,-74.56423771666667,41.642,8.100000000000002e-05,0.0,0.0,0.0,0.00011664000000000001,0.0,0.0,0.0,0.005184000000000001,1
1593996318.1762226,26152,1574795840,61695098,navsat_link,2,1,40.663290265,-74.56423609,42.049,8.100000000000002e-05,0.0,0.0,0.0,0.00011664000000000001,0.0,0.0,0.0,207.36,1
1593996318.3735564,26153,1574795840,258935928,navsat_link,2,1,40.663289236666664,-74.56423378166667,41.61299999999999,0.00685584,0.0,0.0,0.0,0.00876096,0.0,0.0,0.0,0.005184000000000001,1
1593996318.5650768,26154,1574795840,450525045,navsat_link,2,1,40.66328676,-74.56423220166667,42.077999999999996,8.100000000000002e-05,0.0,0.0,0.0,0.00011664000000000001,0.0,0.0,0.0,207.36,1
1593996318.7631335,26155,1574795840,648756980,navsat_link,2,1,40.66328500833333,-74.5642301,42.097,0.00685584,0.0,0.0,0.0,0.00876096,0.0,0.0,0.0,207.36,1
1593996318.9531288,26156,1574795840,838680028,navsat_link,2,1,40.66328341333333,-74.56422798333334,42.083000000000006,0.00685584,0.0,0.0,0.0,0.00876096,0.0,0.0,0.0,207.36,1
1593996319.1652243,26157,1574795841,50744056,navsat_link,2,1,40.66328211,-74.56422581833333,41.725,0.008464,0.0,0.0,0.0,0.010816,0.0,0.0,0.0,0.0064,1
1593996319.3739893,26158,1574795841,259167909,navsat_link,2,1,40.66327996333333,-74.56422400833333,41.793,8.100000000000002e-05,0.0,0.0,0.0,9.800999999999998e-05,0.0,0.0,0.0,0.005184000000000001,1
1593996319.5695965,26159,1574795841,454731941,navsat_link,2,1,40.66327845833333,-74.564221785,41.802,6.560999999999999e-05,0.0,0.0,0.0,9.800999999999998e-05,0.0,0.0,0.0,0.005184000000000001,1
1593996319.7603562,26160,1574795841,645898103,navsat_link,2,1,40.66327629,-74.56421976166666,42.228,6.560999999999999e-05,0.0,0.0,0.0,9.800999999999998e-05,0.0,0.0,0.0,207.36,1
1593996319.9627993,26161,1574795841,848366975,navsat_link,2,1,40.663274908333335,-74.56421778,41.812000000000005,0.00670761,0.0,0.0,0.0,0.00876096,0.0,0.0,0.0,0.005184000000000001,1
1593996320.1674776,26162,1574795842,53045988,navsat_link,2,1,40.663272915,-74.56421589833333,41.913000000000004,9.800999999999998e-05,0.0,0.0,0.0,0.00011664000000000001,0.0,0.0,0.0,0.005184000000000001,1
1593996320.3664663,26163,1574795842,251692056,navsat_link,2,1,40.66327086,-74.56421303666667,42.356,8.100000000000002e-05,0.0,0.0,0.0,0.00011664000000000001,0.0,0.0,0.0,207.36,1
1593996320.5695207,26164,1574795842,455161094,navsat_link,2,1,40.663268915,-74.564210705,42.368,0.00685584,0.0,0.0,0.0,0.00876096,0.0,0.0,0.0,207.36,1
1593996320.7623096,26165,1574795842,647564888,navsat_link,2,1,40.663267108333336,-74.56420884833334,42.342999999999996,0.00670761,0.0,0.0,0.0,0.008593289999999998,0.0,0.0,0.0,207.36,1
1593996320.9626224,26166,1574795842,848021984,navsat_link,2,1,40.66326540833333,-74.56420705833334,42.437000000000005,0.00670761,0.0,0.0,0.0,0.008593289999999998,0.0,0.0,0.0,207.36,1
1593996321.1657293,26167,1574795843,50721883,navsat_link,2,1,40.66326316166667,-74.56420519666666,42.448,0.00670761,0.0,0.0,0.0,0.008593289999999998,0.0,0.0,0.0,207.36,1
1593996321.372933,26168,1574795843,258408069,navsat_link,2,1,40.66326130666667,-74.56420339166667,42.373,0.00670761,0.0,0.0,0.0,0.008593289999999998,0.0,0.0,0.0,207.36,1
1593996321.561083,26169,1574795843,446249008,navsat_link,2,1,40.663259026666665,-74.564201635,42.364,0.00670761,0.0,0.0,0.0,0.008593289999999998,0.0,0.0,0.0,207.36,1
1593996321.7619007,26170,1574795843,647228002,navsat_link,2,1,40.66325723,-74.56419966833333,42.419000000000004,0.00685584,0.0,0.0,0.0,0.008593289999999998,0.0,0.0,0.0,207.36,1
1593996321.9601367,26171,1574795843,844964027,navsat_link,2,1,40.66325520833333,-74.564197885,42.407000000000004,0.00670761,0.0,0.0,0.0,0.008593289999999998,0.0,0.0,0.0,207.36,1
1593996322.1662633,26172,1574795844,51722049,navsat_link,2,1,40.6632533,-74.56419590166666,42.371,0.00685584,0.0,0.0,0.0,0.008593289999999998,0.0,0.0,0.0,207.36,1
1593996322.3780186,26173,1574795844,263396024,navsat_link,2,1,40.663251655,-74.56419342,42.35999999999999,0.00893025,0.0,0.0,0.0,0.00927369,0.0,0.0,0.0,207.36,1
1593996322.5695314,26174,1574795844,455046892,navsat_link,2,1,40.66324978,-74.56419127166667,42.424,0.00777924,0.0,0.0,0.0,0.009447839999999999,0.0,0.0,0.0,207.36,1
1593996322.7642589,26175,1574795844,648802995,navsat_link,2,1,40.663248235,-74.56418918833333,42.36599999999999,0.00762129,0.0,0.0,0.0,0.00910116,0.0,0.0,0.0,207.36,1
1593996322.9673629,26176,1574795844,852874040,navsat_link,2,1,40.663246216666664,-74.56418708833333,42.442,0.0074649600000000005,0.0,0.0,0.0,0.00893025,0.0,0.0,0.0,207.36,1
1593996323.1697547,26177,1574795845,54419040,navsat_link,2,1,40.663244553333335,-74.56418505833334,42.404,0.0074649600000000005,0.0,0.0,0.0,0.00893025,0.0,0.0,0.0,207.36,1
1593996323.3722537,26178,1574795845,257719993,navsat_link,2,1,40.66324281666667,-74.56418264833333,42.421,0.0074649600000000005,0.0,0.0,0.0,0.00876096,0.0,0.0,0.0,207.36,1
1593996323.575034,26179,1574795845,459959983,navsat_link,2,1,40.66324109666667,-74.56418037833333,42.470000000000006,0.0074649600000000005,0.0,0.0,0.0,0.00876096,0.0,0.0,0.0,207.36,1
1593996323.778664,26180,1574795845,662758111,navsat_link,2,1,40.66323928333333,-74.56417828666666,42.422000000000004,0.007310250000000001,0.0,0.0,0.0,0.00876096,0.0,0.0,0.0,207.36,1
1593996323.9667406,26181,1574795845,851937055,navsat_link,2,1,40.663237638333335,-74.564175805,42.424,0.007310250000000001,0.0,0.0,0.0,0.008593289999999998,0.0,0.0,0.0,207.36,1
1593996324.1687195,26182,1574795846,53631067,navsat_link,2,1,40.663236196666666,-74.56417315666667,42.443000000000005,0.007310250000000001,0.0,0.0,0.0,0.008593289999999998,0.0,0.0,0.0,207.36,1
1593996324.3815389,26183,1574795846,266820907,navsat_link,2,1,40.66323458833333,-74.564170705,42.446000000000005,0.007310250000000001,0.0,0.0,0.0,0.008593289999999998,0.0,0.0,0.0,207.36,1
1593996324.5621939,26184,1574795846,447165966,navsat_link,2,1,40.663233235,-74.56416815833333,42.452999999999996,0.007310250000000001,0.0,0.0,0.0,0.008593289999999998,0.0,0.0,0.0,207.36,1
1593996324.7829971,26185,1574795846,667481899,navsat_link,2,1,40.663231855,-74.56416567333333,42.425999999999995,0.007157160000000002,0.0,0.0,0.0,0.008593289999999998,0.0,0.0,0.0,207.36,1
1593996324.9660258,26186,1574795846,851402044,navsat_link,2,1,40.66323035333333,-74.564162885,42.395999999999994,0.007157160000000002,0.0,0.0,0.0,0.008427239999999999,0.0,0.0,0.0,207.36,1
1593996325.1668992,26187,1574795847,52192926,navsat_link,2,1,40.663228798333336,-74.56416021,42.452000000000005,0.007157160000000002,0.0,0.0,0.0,0.008427239999999999,0.0,0.0,0.0,207.36,1
1593996325.38232,26188,1574795847,267179012,navsat_link,2,1,40.66322718166667,-74.56415808333334,42.461999999999996,0.007157160000000002,0.0,0.0,0.0,0.008427239999999999,0.0,0.0,0.0,207.36,1
1593996325.5624604,26189,1574795847,447575092,navsat_link,2,1,40.66322552333333,-74.564155485,42.495,0.007157160000000002,0.0,0.0,0.0,0.008427239999999999,0.0,0.0,0.0,207.36,1
1593996325.7717888,26190,1574795847,656914949,navsat_link,2,1,40.66322375166666,-74.56415304833334,42.440000000000005,0.007157160000000002,0.0,0.0,0.0,0.008427239999999999,0.0,0.0,0.0,207.36,1
1593996325.9713457,26191,1574795847,856580972,navsat_link,2,1,40.663222078333334,-74.56415097166666,42.412,0.007157160000000002,0.0,0.0,0.0,0.008427239999999999,0.0,0.0,0.0,207.36,1
1593996326.16681,26192,1574795848,52171945,navsat_link,2,1,40.66322040166666,-74.56414852,42.391,0.007157160000000002,0.0,0.0,0.0,0.008262810000000002,0.0,0.0,0.0,207.36,1
1593996326.3838458,26193,1574795848,268678903,navsat_link,2,1,40.663218828333335,-74.56414606166666,42.391,0.007157160000000002,0.0,0.0,0.0,0.008262810000000002,0.0,0.0,0.0,207.36,1
1593996326.5572968,26194,1574795848,442724943,navsat_link,2,1,40.663217075,-74.56414388833333,42.439,0.007005689999999999,0.0,0.0,0.0,0.008262810000000002,0.0,0.0,0.0,207.36,1
1593996326.7810876,26195,1574795848,666001081,navsat_link,2,1,40.663215295,-74.56414163166667,42.406,0.007005689999999999,0.0,0.0,0.0,0.008262810000000002,0.0,0.0,0.0,207.36,1
1593996326.9603012,26196,1574795848,845575094,navsat_link,2,1,40.66321359,-74.56413944833334,42.371,0.007005689999999999,0.0,0.0,0.0,0.008262810000000002,0.0,0.0,0.0,207.36,1
1593996327.1751733,26197,1574795849,59865951,navsat_link,2,1,40.66321156,-74.56413735666666,42.336999999999996,0.007005689999999999,0.0,0.0,0.0,0.008262810000000002,0.0,0.0,0.0,207.36,1
1593996327.3723016,26198,1574795849,257318019,navsat_link,2,1,40.663209673333334,-74.56413571333333,42.397,0.007005689999999999,0.0,0.0,0.0,0.008262810000000002,0.0,0.0,0.0,207.36,1
1593996327.5595376,26199,1574795849,444869041,navsat_link,2,1,40.663207723333336,-74.56413374166667,42.36899999999999,0.007005689999999999,0.0,0.0,0.0,0.008262810000000002,0.0,0.0,0.0,207.36,1
1593996327.776925,26200,1574795849,661700010,navsat_link,2,1,40.663205956666665,-74.564131855,42.362,0.007005689999999999,0.0,0.0,0.0,0.008100000000000001,0.0,0.0,0.0,207.36,1
1593996327.955364,26201,1574795849,840879917,navsat_link,2,1,40.66320420666667,-74.56412956166666,42.377,0.007005689999999999,0.0,0.0,0.0,0.008100000000000001,0.0,0.0,0.0,207.36,1
1593996328.1679525,26202,1574795850,53312063,navsat_link,2,1,40.66320240666667,-74.56412744,42.38,0.00685584,0.0,0.0,0.0,0.008100000000000001,0.0,0.0,0.0,207.36,1
1593996328.3703425,26203,1574795850,255265951,navsat_link,2,1,40.66320057666667,-74.56412527833334,42.404,0.00685584,0.0,0.0,0.0,0.008100000000000001,0.0,0.0,0.0,207.36,1
1593996328.5639524,26204,1574795850,449358940,navsat_link,2,1,40.663198873333336,-74.56412323833334,42.329,0.00685584,0.0,0.0,0.0,0.008100000000000001,0.0,0.0,0.0,207.36,1
1593996328.7688332,26205,1574795850,647402048,navsat_link,2,1,40.663196991666666,-74.56412113333333,42.294999999999995,0.007005689999999999,0.0,0.0,0.0,0.008100000000000001,0.0,0.0,0.0,207.36,1
1593996328.9634583,26206,1574795850,848409891,navsat_link,2,1,40.66319527,-74.56411860666667,42.349,0.007005689999999999,0.0,0.0,0.0,0.008100000000000001,0.0,0.0,0.0,207.36,1
1593996329.1613643,26207,1574795851,46895980,navsat_link,2,1,40.663193995,-74.56411726,42.336999999999996,0.00685584,0.0,0.0,0.0,0.007938810000000003,0.0,0.0,0.0,207.36,1
1593996329.3677156,26208,1574795851,252214908,navsat_link,2,1,40.663192548333335,-74.564114735,42.333000000000006,0.00685584,0.0,0.0,0.0,0.007938810000000003,0.0,0.0,0.0,207.36,1
1593996329.5649228,26209,1574795851,450148105,navsat_link,2,1,40.66319103166666,-74.56411216833334,42.321999999999996,0.00685584,0.0,0.0,0.0,0.007938810000000003,0.0,0.0,0.0,207.36,1
1593996329.752252,26210,1574795851,637649059,navsat_link,2,1,40.66318960833333,-74.56410964666667,42.315000000000005,0.00685584,0.0,0.0,0.0,0.007938810000000003,0.0,0.0,0.0,207.36,1
1593996329.9647176,26211,1574795851,850256919,navsat_link,2,1,40.66318828666667,-74.564107435,42.299,0.00685584,0.0,0.0,0.0,0.007938810000000003,0.0,0.0,0.0,207.36,1
1593996330.1585734,26212,1574795852,44127941,navsat_link,2,1,40.66318664666667,-74.564105405,42.321000000000005,0.00685584,0.0,0.0,0.0,0.007938810000000003,0.0,0.0,0.0,207.36,1
1593996330.3583477,26213,1574795852,243741989,navsat_link,2,1,40.66318518333333,-74.56410339833333,42.311,0.00685584,0.0,0.0,0.0,0.007938810000000003,0.0,0.0,0.0,207.36,1
1593996330.559974,26214,1574795852,445244073,navsat_link,2,1,40.66318321666667,-74.56410124833333,42.306000000000004,0.00685584,0.0,0.0,0.0,0.00777924,0.0,0.0,0.0,207.36,1
1593996330.756093,26215,1574795852,641657114,navsat_link,2,1,40.66318149,-74.56409996333333,42.266,0.00670761,0.0,0.0,0.0,0.00777924,0.0,0.0,0.0,207.36,1
1593996330.9642186,26216,1574795852,849776029,navsat_link,2,1,40.66318054,-74.56409873166666,42.249,0.00670761,0.0,0.0,0.0,0.00777924,0.0,0.0,0.0,207.36,1
1593996331.1718853,26217,1574795853,56684970,navsat_link,2,1,40.663179585,-74.56409716,42.225,0.00670761,0.0,0.0,0.0,0.00777924,0.0,0.0,0.0,207.36,1
1593996331.3652954,26218,1574795853,250767946,navsat_link,2,1,40.66317838333333,-74.56409450333334,42.219,0.00670761,0.0,0.0,0.0,0.00777924,0.0,0.0,0.0,207.36,1
1593996331.5641158,26219,1574795853,449192047,navsat_link,2,1,40.663177383333334,-74.56409167833333,42.189,0.00670761,0.0,0.0,0.0,0.00777924,0.0,0.0,0.0,207.36,1
1593996331.7556586,26220,1574795853,641136884,navsat_link,2,1,40.663176363333335,-74.56408871833334,42.196000000000005,0.00670761,0.0,0.0,0.0,0.00762129,0.0,0.0,0.0,207.36,1
1593996331.9641447,26221,1574795853,849456071,navsat_link,2,1,40.66317509333334,-74.56408587333334,42.18,0.00670761,0.0,0.0,0.0,0.00762129,0.0,0.0,0.0,207.36,1
1593996332.1532025,26222,1574795854,38461923,navsat_link,2,1,40.663174221666665,-74.56408296,42.214000000000006,0.00670761,0.0,0.0,0.0,0.00762129,0.0,0.0,0.0,207.36,1
1593996332.3527305,26223,1574795854,237797021,navsat_link,2,1,40.66317325,-74.56408006666666,42.216,0.00670761,0.0,0.0,0.0,0.00762129,0.0,0.0,0.0,207.36,1
1593996332.5584211,26224,1574795854,443829059,navsat_link,2,1,40.663172253333336,-74.56407696666666,42.216,0.00670761,0.0,0.0,0.0,0.00762129,0.0,0.0,0.0,207.36,1
1593996332.7585273,26225,1574795854,643728971,navsat_link,2,1,40.663170995,-74.564074275,42.202000000000005,0.00670761,0.0,0.0,0.0,0.00762129,0.0,0.0,0.0,207.36,1
1593996332.9781923,26226,1574795854,863789081,navsat_link,2,1,40.66316923833333,-74.56407197166666,42.205999999999996,0.00670761,0.0,0.0,0.0,0.00762129,0.0,0.0,0.0,207.36,1
1593996333.164315,26227,1574795855,49885034,navsat_link,2,1,40.66316788333334,-74.56406895,42.201,0.006561,0.0,0.0,0.0,0.00762129,0.0,0.0,0.0,207.36,1
1593996333.3662398,26228,1574795855,251594066,navsat_link,2,1,40.663166618333335,-74.56406623,42.246,0.006561,0.0,0.0,0.0,0.00762129,0.0,0.0,0.0,207.36,1
1593996333.563597,26229,1574795855,449269056,navsat_link,2,1,40.663165175,-74.56406350166667,42.270999999999994,0.006561,0.0,0.0,0.0,0.00762129,0.0,0.0,0.0,207.36,1
1593996333.7661767,26230,1574795855,651540040,navsat_link,2,1,40.66316397333333,-74.564060945,42.22899999999999,0.006561,0.0,0.0,0.0,0.00777924,0.0,0.0,0.0,207.36,1
1593996333.9823468,26231,1574795855,867654085,navsat_link,2,1,40.66316258333333,-74.56405883333333,42.178999999999995,0.006561,0.0,0.0,0.0,0.00762129,0.0,0.0,0.0,207.36,1
1593996334.168938,26232,1574795856,53936004,navsat_link,2,1,40.66316114833333,-74.56405583,42.112,0.006561,0.0,0.0,0.0,0.00762129,0.0,0.0,0.0,207.36,1
1593996334.3693376,26233,1574795856,254565954,navsat_link,2,1,40.663159711666665,-74.56405325666667,42.074000000000005,0.006561,0.0,0.0,0.0,0.00762129,0.0,0.0,0.0,207.36,1
1593996334.562327,26234,1574795856,446559906,navsat_link,2,1,40.66315867833333,-74.56405088666666,41.970000000000006,0.006561,0.0,0.0,0.0,0.00762129,0.0,0.0,0.0,207.36,1
1593996334.7682304,26235,1574795856,643095016,navsat_link,2,1,40.663157608333336,-74.56404899833333,41.818999999999996,0.006561,0.0,0.0,0.0,0.00762129,0.0,0.0,0.0,207.36,1
1593996334.9858253,26236,1574795856,870934963,navsat_link,0,1,40.663156713333336,-74.56404529833333,41.714999999999996,0.006561,0.0,0.0,0.0,0.00910116,0.0,0.0,0.0,207.36,1
1593996335.174551,26237,1574795857,59942960,navsat_link,2,1,40.66315538333333,-74.56404272166667,41.787,0.00670761,0.0,0.0,0.0,0.008262810000000002,0.0,0.0,0.0,207.36,1
1593996335.3670905,26238,1574795857,251682043,navsat_link,2,1,40.663153965,-74.564040875,42.51,0.00685584,0.0,0.0,0.0,0.00893025,0.0,0.0,0.0,207.36,1
1593996335.5737617,26239,1574795857,458770036,navsat_link,2,1,40.66315308833333,-74.56403686333333,41.998,0.007005689999999999,0.0,0.0,0.0,0.009801,0.0,0.0,0.0,207.36,1
1593996335.7735565,26240,1574795857,658874034,navsat_link,2,1,40.66315185333333,-74.56403412166667,41.824000000000005,0.006561,0.0,0.0,0.0,0.00927369,0.0,0.0,0.0,207.36,1
1593996335.980309,26241,1574795857,865206956,navsat_link,2,1,40.663150525,-74.56403207833333,41.839999999999996,0.006561,0.0,0.0,0.0,0.008100000000000001,0.0,0.0,0.0,207.36,1
1593996336.1759334,26242,1574795858,60915946,navsat_link,2,1,40.66314898833333,-74.56402922666666,41.805,0.006561,0.0,0.0,0.0,0.007938810000000003,0.0,0.0,0.0,207.36,1
1593996336.3693628,26243,1574795858,254232883,navsat_link,2,1,40.663147495,-74.56402702833333,41.748,0.006561,0.0,0.0,0.0,0.007938810000000003,0.0,0.0,0.0,207.36,1
1593996336.5639205,26244,1574795858,449304103,navsat_link,2,1,40.66314615,-74.56402488833334,41.779999999999994,0.006561,0.0,0.0,0.0,0.007938810000000003,0.0,0.0,0.0,207.36,1
1593996336.7697968,26245,1574795858,654287099,navsat_link,2,1,40.66314531166667,-74.56402329,41.803000000000004,0.006416010000000001,0.0,0.0,0.0,0.007938810000000003,0.0,0.0,0.0,207.36,1
1593996336.98626,26246,1574795858,870923042,navsat_link,2,1,40.66314464333333,-74.564021735,41.826,0.006416010000000001,0.0,0.0,0.0,0.007938810000000003,0.0,0.0,0.0,207.36,1
1593996337.1772861,26247,1574795859,61813116,navsat_link,2,1,40.66314402,-74.56401960833334,41.85999999999999,0.006416010000000001,0.0,0.0,0.0,0.007938810000000003,0.0,0.0,0.0,207.36,1
1593996337.358802,26248,1574795859,244411945,navsat_link,2,1,40.66314346,-74.564016175,41.805,0.006416010000000001,0.0,0.0,0.0,0.00777924,0.0,0.0,0.0,207.36,1
1593996337.563725,26249,1574795859,448719024,navsat_link,2,1,40.663142433333334,-74.56401284,41.897,0.006416010000000001,0.0,0.0,0.0,0.00777924,0.0,0.0,0.0,207.36,1
1593996337.7746735,26250,1574795859,659414052,navsat_link,2,1,40.66314181,-74.564010505,41.82,0.006416010000000001,0.0,0.0,0.0,0.00777924,0.0,0.0,0.0,207.36,1
1593996337.9584541,26251,1574795859,843971967,navsat_link,2,1,40.66314116666667,-74.56400680666667,41.824999999999996,0.006416010000000001,0.0,0.0,0.0,0.00777924,0.0,0.0,0.0,207.36,1
1593996338.1680853,26252,1574795860,52908897,navsat_link,2,1,40.66314091666667,-74.564002955,41.924,0.006416010000000001,0.0,0.0,0.0,0.00777924,0.0,0.0,0.0,207.36,1
1593996338.370722,26253,1574795860,255100965,navsat_link,2,1,40.66314060166667,-74.56400010666667,41.891,0.006416010000000001,0.0,0.0,0.0,0.00777924,0.0,0.0,0.0,207.36,1
1593996338.5756197,26254,1574795860,460624933,navsat_link,2,1,40.66313982166667,-74.56399716,41.827000000000005,0.006416010000000001,0.0,0.0,0.0,0.00777924,0.0,0.0,0.0,207.36,1
1593996338.7706573,26255,1574795860,656027078,navsat_link,2,1,40.66313947,-74.56399391333333,41.824999999999996,0.006272639999999999,0.0,0.0,0.0,0.00777924,0.0,0.0,0.0,207.36,1
1593996338.9786513,26256,1574795860,863679885,navsat_link,2,1,40.66313889,-74.563990865,41.812000000000005,0.006272639999999999,0.0,0.0,0.0,0.00777924,0.0,0.0,0.0,207.36,1
1593996339.1758842,26257,1574795861,60668945,navsat_link,2,1,40.66313839166666,-74.56398758666667,41.74099999999999,0.006272639999999999,0.0,0.0,0.0,0.00762129,0.0,0.0,0.0,207.36,1
1593996339.3752682,26258,1574795861,260607957,navsat_link,2,1,40.663137893333335,-74.56398427,41.74099999999999,0.006272639999999999,0.0,0.0,0.0,0.00762129,0.0,0.0,0.0,207.36,1
1593996339.57214,26259,1574795861,456604003,navsat_link,2,1,40.663137385,-74.56398115666667,41.668,0.006272639999999999,0.0,0.0,0.0,0.00762129,0.0,0.0,0.0,207.36,1
1593996339.7661622,26260,1574795861,651839971,navsat_link,2,1,40.66313715166667,-74.56397810833333,41.687000000000005,0.006272639999999999,0.0,0.0,0.0,0.00762129,0.0,0.0,0.0,207.36,1
1593996339.9695995,26261,1574795861,855055093,navsat_link,2,1,40.66313660833333,-74.56397475,41.61599999999999,0.006272639999999999,0.0,0.0,0.0,0.00762129,0.0,0.0,0.0,207.36,1
1593996340.1626167,26262,1574795862,48027992,navsat_link,2,1,40.66313605,-74.56397165833333,41.63399999999999,0.006272639999999999,0.0,0.0,0.0,0.00762129,0.0,0.0,0.0,207.36,1
1593996340.3650396,26263,1574795862,250545978,navsat_link,2,1,40.66313567,-74.56396835666666,41.602,0.006272639999999999,0.0,0.0,0.0,0.0074649600000000005,0.0,0.0,0.0,207.36,1
1593996340.5692809,26264,1574795862,454436063,navsat_link,2,1,40.663135415,-74.56396525833334,41.60999999999999,0.006272639999999999,0.0,0.0,0.0,0.0074649600000000005,0.0,0.0,0.0,207.36,1
1593996340.7630813,26265,1574795862,648385047,navsat_link,2,1,40.66313473833333,-74.56396256666666,41.513,0.006130889999999999,0.0,0.0,0.0,0.0074649600000000005,0.0,0.0,0.0,207.36,1
1593996340.964581,26266,1574795862,849994897,navsat_link,2,1,40.663134485,-74.56396026666667,41.546,0.006130889999999999,0.0,0.0,0.0,0.0074649600000000005,0.0,0.0,0.0,207.36,1
1593996341.1753263,26267,1574795863,60581922,navsat_link,2,1,40.66313408166667,-74.56395764333334,41.564,0.006130889999999999,0.0,0.0,0.0,0.0074649600000000005,0.0,0.0,0.0,207.36,1
1593996341.3626103,26268,1574795863,248059034,navsat_link,2,1,40.663132618333336,-74.563954255,41.481,0.006561,0.0,0.0,0.0,0.00762129,0.0,0.0,0.0,207.36,1
1593996341.5593739,26269,1574795863,444765090,navsat_link,2,1,40.663131735,-74.56395120333333,41.461999999999996,0.00670761,0.0,0.0,0.0,0.00777924,0.0,0.0,0.0,207.36,1
1593996341.7661421,26270,1574795863,650613069,navsat_link,2,1,40.663131195,-74.56394823166667,41.404,0.00670761,0.0,0.0,0.0,0.00777924,0.0,0.0,0.0,207.36,1
1593996341.9655416,26271,1574795863,850559949,navsat_link,2,1,40.66313048,-74.56394481833334,41.451,0.006561,0.0,0.0,0.0,0.00777924,0.0,0.0,0.0,207.36,1
1593996342.1726842,26272,1574795864,58168888,navsat_link,2,1,40.66312957666667,-74.56394167166667,41.37499999999999,0.006416010000000001,0.0,0.0,0.0,0.0074649600000000005,0.0,0.0,0.0,207.36,1
1593996342.3633041,26273,1574795864,248722076,navsat_link,2,1,40.66312873,-74.56393843,41.43,0.006272639999999999,0.0,0.0,0.0,0.0074649600000000005,0.0,0.0,0.0,207.36,1
1593996342.565797,26274,1574795864,450527906,navsat_link,2,1,40.663127976666665,-74.56393563666667,41.415,0.006272639999999999,0.0,0.0,0.0,0.0074649600000000005,0.0,0.0,0.0,207.36,1
1593996342.7612169,26275,1574795864,646842002,navsat_link,2,1,40.663127298333336,-74.56393250833334,41.410000000000004,0.006130889999999999,0.0,0.0,0.0,0.007310250000000001,0.0,0.0,0.0,207.36,1
1593996342.9606926,26276,1574795864,846276044,navsat_link,2,1,40.663126465,-74.56392960666666,41.394,0.006130889999999999,0.0,0.0,0.0,0.007310250000000001,0.0,0.0,0.0,207.36,1
1593996343.1912374,26277,1574795865,76634883,navsat_link,2,1,40.66312561666667,-74.56392673833334,41.36899999999999,0.006130889999999999,0.0,0.0,0.0,0.007310250000000001,0.0,0.0,0.0,207.36,1
1593996343.360865,26278,1574795865,246448993,navsat_link,2,1,40.66312491666667,-74.56392420833333,41.365,0.006130889999999999,0.0,0.0,0.0,0.007310250000000001,0.0,0.0,0.0,207.36,1
1593996343.558426,26279,1574795865,444058895,navsat_link,2,1,40.66312477333334,-74.56392138,41.342999999999996,0.006130889999999999,0.0,0.0,0.0,0.007310250000000001,0.0,0.0,0.0,207.36,1
1593996343.758794,26280,1574795865,644222021,navsat_link,2,1,40.66312421666667,-74.56391822333333,41.353,0.006130889999999999,0.0,0.0,0.0,0.007310250000000001,0.0,0.0,0.0,207.36,1
1593996343.969235,26281,1574795865,854140043,navsat_link,2,1,40.663123775,-74.56391559833334,41.318999999999996,0.0059907599999999995,0.0,0.0,0.0,0.007157160000000002,0.0,0.0,0.0,207.36,1
1593996344.1709988,26282,1574795866,56469917,navsat_link,2,1,40.663123435,-74.56391244166667,41.338,0.0059907599999999995,0.0,0.0,0.0,0.007157160000000002,0.0,0.0,0.0,207.36,1
1593996344.3687797,26283,1574795866,254054069,navsat_link,2,1,40.663123131666666,-74.563909345,41.272,0.0059907599999999995,0.0,0.0,0.0,0.007157160000000002,0.0,0.0,0.0,207.36,1
1593996344.561322,26284,1574795866,446540117,navsat_link,2,1,40.66312301666667,-74.56390603,41.275,0.0059907599999999995,0.0,0.0,0.0,0.007157160000000002,0.0,0.0,0.0,207.36,1
1593996344.7676973,26285,1574795866,652951002,navsat_link,2,1,40.66312287666667,-74.563902725,41.29899999999999,0.0059907599999999995,0.0,0.0,0.0,0.007157160000000002,0.0,0.0,0.0,207.36,1
1593996344.9599001,26286,1574795866,845283031,navsat_link,2,1,40.66312251,-74.56390006833334,41.221000000000004,0.0059907599999999995,0.0,0.0,0.0,0.007157160000000002,0.0,0.0,0.0,207.36,1
1593996345.1729317,26287,1574795867,58022022,navsat_link,2,1,40.663122055,-74.56389721666666,41.16499999999999,0.0058522500000000015,0.0,0.0,0.0,0.007005689999999999,0.0,0.0,0.0,207.36,1
1593996345.3644323,26288,1574795867,248364925,navsat_link,2,1,40.66312190833333,-74.56389413833334,41.212999999999994,0.0058522500000000015,0.0,0.0,0.0,0.007005689999999999,0.0,0.0,0.0,207.36,1
1593996345.561524,26289,1574795867,446834087,navsat_link,2,1,40.66312203,-74.56389044666666,41.241,0.0058522500000000015,0.0,0.0,0.0,0.007005689999999999,0.0,0.0,0.0,207.36,1
1593996345.7630498,26290,1574795867,648257017,navsat_link,2,1,40.663121311666664,-74.56388783666667,41.131,0.0058522500000000015,0.0,0.0,0.0,0.007005689999999999,0.0,0.0,0.0,207.36,1
1593996345.969953,26291,1574795867,854594945,navsat_link,2,1,40.663120795,-74.5638847,41.08,0.0058522500000000015,0.0,0.0,0.0,0.007005689999999999,0.0,0.0,0.0,207.36,1
1593996346.1776361,26292,1574795868,63143014,navsat_link,2,1,40.663120475,-74.56388126166667,41.072,0.0058522500000000015,0.0,0.0,0.0,0.007005689999999999,0.0,0.0,0.0,207.36,1
1593996346.3691192,26293,1574795868,253948926,navsat_link,2,1,40.66312034333333,-74.56387821166666,41.053,0.0059907599999999995,0.0,0.0,0.0,0.007005689999999999,0.0,0.0,0.0,207.36,1
1593996346.5681899,26294,1574795868,453583002,navsat_link,2,1,40.66312062,-74.56387487666667,41.068,0.007005689999999999,0.0,0.0,0.0,0.007005689999999999,0.0,0.0,0.0,207.36,1
1593996346.7669845,26295,1574795868,651719093,navsat_link,2,1,40.66312017833334,-74.56387169333334,41.0,0.007005689999999999,0.0,0.0,0.0,0.007005689999999999,0.0,0.0,0.0,207.36,1
1593996346.9632568,26296,1574795868,848459005,navsat_link,2,1,40.663120076666665,-74.56386969833333,40.974999999999994,0.006272639999999999,0.0,0.0,0.0,0.007005689999999999,0.0,0.0,0.0,207.36,1
1593996347.170725,26297,1574795869,55748939,navsat_link,2,1,40.66312039,-74.56386738166667,40.955,0.006272639999999999,0.0,0.0,0.0,0.007005689999999999,0.0,0.0,0.0,207.36,1
1593996347.371988,26298,1574795869,256783008,navsat_link,2,1,40.66312050166667,-74.56386497666666,40.897999999999996,0.006130889999999999,0.0,0.0,0.0,0.00685584,0.0,0.0,0.0,207.36,1
1593996347.56963,26299,1574795869,454785108,navsat_link,2,1,40.66312075,-74.56386298,40.88199999999999,0.006130889999999999,0.0,0.0,0.0,0.00685584,0.0,0.0,0.0,207.36,1
1593996347.7681315,26300,1574795869,653420925,navsat_link,2,1,40.66312169333333,-74.56385972,40.90899999999999,0.006130889999999999,0.0,0.0,0.0,0.00685584,0.0,0.0,0.0,207.36,1
1593996347.9694006,26301,1574795869,854588031,navsat_link,2,1,40.663122728333335,-74.56385675666667,40.863,0.0059907599999999995,0.0,0.0,0.0,0.00685584,0.0,0.0,0.0,207.36,1
1593996348.173371,26302,1574795870,53601026,navsat_link,2,1,40.66312341,-74.56385408833333,40.81999999999999,0.0059907599999999995,0.0,0.0,0.0,0.00685584,0.0,0.0,0.0,207.36,1
1593996348.372139,26303,1574795870,257298946,navsat_link,2,1,40.663123745,-74.56385146333334,40.718,0.0059907599999999995,0.0,0.0,0.0,0.00685584,0.0,0.0,0.0,207.36,1
1593996348.5675023,26304,1574795870,452388048,navsat_link,2,1,40.663124245,-74.56384848166667,40.706999999999994,0.0059907599999999995,0.0,0.0,0.0,0.00685584,0.0,0.0,0.0,207.36,1
1593996348.772778,26305,1574795870,657273054,navsat_link,2,1,40.663124805,-74.56384651166667,40.703,0.0059907599999999995,0.0,0.0,0.0,0.00685584,0.0,0.0,0.0,207.36,1
1593996348.9724393,26306,1574795870,856564998,navsat_link,2,1,40.66312592,-74.56384411833334,40.63799999999999,0.0058522500000000015,0.0,0.0,0.0,0.00685584,0.0,0.0,0.0,207.36,1
1593996349.168986,26307,1574795871,54034948,navsat_link,2,1,40.663126426666665,-74.56384163166666,40.60799999999999,0.0058522500000000015,0.0,0.0,0.0,0.00685584,0.0,0.0,0.0,207.36,1
1593996349.366466,26308,1574795871,251627922,navsat_link,2,1,40.663127046666666,-74.56383894333334,40.57299999999999,0.0058522500000000015,0.0,0.0,0.0,0.00670761,0.0,0.0,0.0,207.36,1
1593996349.567364,26309,1574795871,452393054,navsat_link,2,1,40.663127691666666,-74.56383574333333,40.521,0.0058522500000000015,0.0,0.0,0.0,0.00670761,0.0,0.0,0.0,207.36,1
1593996349.7648566,26310,1574795871,649102926,navsat_link,2,1,40.66312818833333,-74.56383252666667,40.49199999999999,0.0058522500000000015,0.0,0.0,0.0,0.00670761,0.0,0.0,0.0,207.36,1
1593996349.9611642,26311,1574795871,845803022,navsat_link,2,1,40.66312917,-74.56382956,40.455,0.0058522500000000015,0.0,0.0,0.0,0.00670761,0.0,0.0,0.0,207.36,1
1593996350.1680403,26312,1574795872,52975893,navsat_link,2,1,40.66312975,-74.56382639833333,40.414,0.00571536,0.0,0.0,0.0,0.00670761,0.0,0.0,0.0,207.36,1
1593996350.3623726,26313,1574795872,247730970,navsat_link,2,1,40.663130475,-74.563823315,40.39999999999999,0.00571536,0.0,0.0,0.0,0.00670761,0.0,0.0,0.0,207.36,1
1593996350.5603933,26314,1574795872,445807933,navsat_link,2,1,40.663130775,-74.56382083,40.33,0.00571536,0.0,0.0,0.0,0.00670761,0.0,0.0,0.0,207.36,1
1593996350.7589133,26315,1574795872,644382953,navsat_link,2,1,40.66313143666667,-74.56381825,40.31699999999999,0.00571536,0.0,0.0,0.0,0.00670761,0.0,0.0,0.0,207.36,1
1593996350.9673755,26316,1574795872,852608919,navsat_link,2,1,40.663132345,-74.56381511166667,40.282,0.00571536,0.0,0.0,0.0,0.00670761,0.0,0.0,0.0,207.36,1
1593996351.1567585,26317,1574795873,42247056,navsat_link,2,1,40.66313317,-74.56381208166667,40.291,0.00571536,0.0,0.0,0.0,0.00670761,0.0,0.0,0.0,207.36,1
1593996351.361604,26318,1574795873,247185945,navsat_link,2,1,40.663134085,-74.56380905666667,40.29299999999999,0.0058522500000000015,0.0,0.0,0.0,0.00670761,0.0,0.0,0.0,207.36,1
1593996351.5670547,26319,1574795873,452198028,navsat_link,2,1,40.66313514666667,-74.563806345,40.221999999999994,0.0058522500000000015,0.0,0.0,0.0,0.00670761,0.0,0.0,0.0,207.36,1
1593996351.7603226,26320,1574795873,645761013,navsat_link,2,1,40.66313649,-74.563803595,40.185,0.00571536,0.0,0.0,0.0,0.00670761,0.0,0.0,0.0,207.36,1
1593996351.9626029,26321,1574795873,847645998,navsat_link,2,1,40.66313728666667,-74.56380066333334,40.206,0.00571536,0.0,0.0,0.0,0.00670761,0.0,0.0,0.0,207.36,1
1593996352.176805,26322,1574795874,61741113,navsat_link,2,1,40.663138311666664,-74.5637976,40.17,0.006130889999999999,0.0,0.0,0.0,0.00670761,0.0,0.0,0.0,207.36,1
1593996352.36939,26323,1574795874,254816055,navsat_link,2,1,40.66313876833333,-74.56379521333334,40.084,0.00571536,0.0,0.0,0.0,0.00670761,0.0,0.0,0.0,207.36,1
1593996352.558557,26324,1574795874,444036006,navsat_link,2,1,40.66314079666667,-74.56379236333333,39.916,0.006130889999999999,0.0,0.0,0.0,0.007005689999999999,0.0,0.0,0.0,207.36,1
